id,name,description,lat,lon,severity,timestamp,rating
2025-09-11T10:23:25.473938,John Doe,Small pothole,39.129698,-84.52066,Low,2025-09-11T10:23:25.473961,1
2025-09-23T09:21:33.610271,Jane Doe,Large Crack,39.142842478062505,-84.51576232910158,Low,2025-09-23T09:21:33.610316,0
2025-09-23T10:23:25.473938,Sahil Thakare,Sprained my ankle! :(,39.13129612603489,-84.52053129673006,High,2025-09-23T10:23:25.473961,8
1758749752903,Antony,Fix this hole,39.12616677836385,-84.49662738906171,High,2025-09-24T21:35:52.903Z,0
1758749788602,Josie,road deterioration approaching the parkway ,39.11745632053452,-84.43902969360353,Low,2025-09-24T21:36:28.602Z,0
1758749816944,Bill Tucker,Multiple potholes on the Victory to Gilbert northbound lane,39.137768331465004,-84.4823956489563,Medium,2025-09-24T21:36:56.944Z,0
